id_station,name,location,id_mrtline,mrtline,station_co,dcode,dname,latitude,longitude
BL01,สถานีท่าพระ,ยกระดับเหนือแยกท่าพระ ซึ่งเป็นจุดตัดระหว่างถนนจรัญสนิทวงศ์ ถนนเพชรเกษม และถนนรัชดาภิเษกฝั่งใต้,1,เส้นทางรถไฟฟ้ามหานคร สายสีน้ำเงิน,,1016,บางกอกใหญ่,13.7296593,100.4740885
BL02,สถานีจรัญฯ 13,ถนนจรัญสนิทวงศ์ บริเวณแยกพาณิชยการธนบุรี,1,เส้นทางรถไฟฟ้ามหานคร สายสีน้ำเงิน,,1016,บางกอกใหญ่,13.74005671,100.4707321
BL03,สถานีไฟฉาย,ถนนจรัญสนิทวงศ์ บริเวณด้านเหนือของแยกไฟฉาย,1,เส้นทางรถไฟฟ้ามหานคร สายสีน้ำเงิน,,1020,บางกอกน้อย,13.7557305,100.4693411
BL04,สถานีบางขุนนนท์,ถนนจรัญสนิทวงศ์ ระหว่างสี่แยกบางขุนนนท์,1,เส้นทางรถไฟฟ้ามหานคร สายสีน้ำเงิน,,1020,บางกอกน้อย,13.76334485,100.4733652
BL05,สถานีบางยี่ขัน,ถนนจรัญสนิทวงศ์ หน้าปากซอยจรัญสนิทวงศ์ 42 บริเวณหน้าตลาดอินดี้ปิ่นเกล้า,1,เส้นทางรถไฟฟ้ามหานคร สายสีน้ำเงิน,,1025,บางพลัด,13.77747388,100.4853472
BL06,สถานีสิรินธร,ยกระดับเหนือถนนจรัญสนิทวงศ์ กรุงเทพมหานคร,1,เส้นทางรถไฟฟ้ามหานคร สายสีน้ำเงิน,,1025,บางพลัด,13.783808,100.4932301
BL07,สถานีบางพลัด,ถนนจรัญสนิทวงศ์ บริเวณด้านหน้าธนาคารกสิกรไทย สาขาบางพลัด,1,เส้นทางรถไฟฟ้ามหานคร สายสีน้ำเงิน,,1025,บางพลัด,13.79238778,100.5048644
BL08,สถานีบางอ้อ,ถนนจรัญสนิทวงศ์บริเวณซอยจรัญสนิทวงศ์ 88,1,เส้นทางรถไฟฟ้ามหานคร สายสีน้ำเงิน,,1025,บางพลัด,13.79899246,100.5097903
BL09,สถานีบางโพ,ถนนประชาราษฎร์ สาย 2 บริเวณสี่แยกบางโพ,1,เส้นทางรถไฟฟ้ามหานคร สายสีน้ำเงิน,,1029,บางซื่อ,13.80640723,100.5211039
BL11,สถานีบางซื่อ,ใกล้สถานีรถไฟบางซื่อ ถนนเทอดดำริ,1,เส้นทางรถไฟฟ้ามหานคร สายสีน้ำเงิน,,1030,จตุจักร,13.80235091,100.5410375
BL12,สถานีกำแพงเพชร,ถนนกำแพงเพชร บริเวณสามแยกกำแพงเพชร 2 หน้าตลาด อ.ต.ก. และตลาดนัดจตุจักร,1,เส้นทางรถไฟฟ้ามหานคร สายสีน้ำเงิน,,1030,จตุจักร,13.79793257,100.547936
BL13,สถานีสวนจตุจักร,ถนนพหลโยธิน ฝั่งทิศตะวันตก ในอาณาเขตสวนจตุจักรด้านทิศใต้ ตรงข้ามศูนย์ซ่อมบำรุงหมอชิต,1,เส้นทางรถไฟฟ้ามหานคร สายสีน้ำเงิน,,1030,จตุจักร,13.80295124,100.5533613
BL14,สถานีพหลโยธิน,"บริเวณห้าแยกลาดพร้าว จุดบรรจบถนนลาดพร้าว, ถนนพหลโยธิน และถนนวิภาวดีรังสิต",1,เส้นทางรถไฟฟ้ามหานคร สายสีน้ำเงิน,,1030,จตุจักร,13.81296882,100.5615673
BL15,สถานีลาดพร้าว,ถนนลาดพร้าว บริเวณทิศตะวันตกของสี่แยกรัชดา-ลาดพร้าว จุดบรรจบถนนลาดพร้าวและถนนรัชดาภิเษก,1,เส้นทางรถไฟฟ้ามหานคร สายสีน้ำเงิน,,1030,จตุจักร,13.8065239,100.572901
BL16,สถานีรัชดาภิเษก,ถนนรัชดาภิเษก บริเวณทิศเหนือของปากซอยโชคชัยร่วมมิตร และสะพานข้ามคลองบางซื่อ,1,เส้นทางรถไฟฟ้ามหานคร สายสีน้ำเงิน,,1026,ดินแดง,13.79895711,100.5744781
BL17,สถานีสุทธิสาร,ถนนรัชดาภิเษก บริเวณกลางทางแยกรัชดา-สุทธิสาร,1,เส้นทางรถไฟฟ้ามหานคร สายสีน้ำเงิน,,1026,ดินแดง,13.78945997,100.5740167
BL18,สถานีห้วยขวาง,ถนนรัชดาภิเษก บริเวณกลางแยกห้วยขวาง,1,เส้นทางรถไฟฟ้ามหานคร สายสีน้ำเงิน,,1026,ดินแดง,13.77869774,100.5734915
BL19,สถานีศูนย์วัฒนธรรมแห่งประเทศไทย,ใต้ถนนรัชดาภิเษก บริเวณด้านหน้าศูนย์การค้าเอสพลานาด รัชดาภิเษก,1,เส้นทางรถไฟฟ้ามหานคร สายสีน้ำเงิน,,1026,ดินแดง,13.76630887,100.5700702
BL20,สถานีพระราม 9,ถนนรัชดาภิเษก บริเวณทิศเหนือของสี่แยกพระราม 9,1,เส้นทางรถไฟฟ้ามหานคร สายสีน้ำเงิน,,1026,ดินแดง,13.75784279,100.5652421
BL21,สถานีเพชรบุรี,ถนนรัชดาภิเษก (อโศก-ดินแดง) บริเวณทิศเหนือของสี่แยกอโศก-เพชรบุรี,1,เส้นทางรถไฟฟ้ามหานคร สายสีน้ำเงิน,,1037,ราชเทวี,13.74919525,100.5633537
BL22,สถานีสุขุมวิท,ถนนอโศกมนตรี หน้าตลาดอโศก ด้านทิศเหนือของสี่แยกอโศกมนตรี,1,เส้นทางรถไฟฟ้ามหานคร สายสีน้ำเงิน,,1039,วัฒนา,13.73738427,100.5614168
BL23,สถานีศูนย์การประชุมแห่งชาติสิริกิติ์,ถนนรัชดาภิเษกตัดใหม่ ด้านหน้าศูนย์การประชุมแห่งชาติสิริกิติ์,1,เส้นทางรถไฟฟ้ามหานคร สายสีน้ำเงิน,,1033,คลองเตย,13.72262377,100.5599045
BL24,สถานีคลองเตย,ถนนพระรามที่ 4 ด้านหน้าสำนักงานการไฟฟ้านครหลวงเขตคลองเตย,1,เส้นทางรถไฟฟ้ามหานคร สายสีน้ำเงิน,,1033,คลองเตย,13.72229036,100.5540033
BL25,สถานีลุมพินี,ถนนพระรามที่ 4 บริเวณทิศตะวันออกของสี่แยกวิทยุ จุดบรรจบของถนนวิทยุ และถนนสาทรเหนือ-ใต้,1,เส้นทางรถไฟฟ้ามหานคร สายสีน้ำเงิน,,1007,ปทุมวัน,13.7257317,100.5457784
BL26,สถานีสีลม,ใต้ผิวถนนพระรามที่ 4 บริเวณสี่แยกศาลาแดงด้านทิศตะวันออก หน้าสวนลุมพินี,1,เส้นทางรถไฟฟ้ามหานคร สายสีน้ำเงิน,,1007,ปทุมวัน,13.72928274,100.5373135
BL27,สถานีสามย่าน,ถนนพระรามที่ 4 บริเวณสี่แยกสามย่านด้านทิศตะวันออกหน้าวัดหัวลำโพง,1,เส้นทางรถไฟฟ้ามหานคร สายสีน้ำเงิน,,1007,ปทุมวัน,13.73222813,100.5302684
BL28,สถานีหัวลำโพง,"ใต้ถนนพระรามที่ 4 บริเวณแยกหัวลำโพง จุดบรรจบ ถนนพระรามที่ 4, ถนนรองเมือง",1,เส้นทางรถไฟฟ้ามหานคร สายสีน้ำเงิน,,1007,ปทุมวัน,13.73755186,100.5171633
BL29,สถานีวัดมังกร,ถนนเจริญกรุง บริเวณสี่แยกแปลงนาม,1,เส้นทางรถไฟฟ้ามหานคร สายสีน้ำเงิน,,1008,ป้อมปราบศัตรูพ่าย,13.74228753,100.5099535
BL30,สถานีสามยอด,ถนนเจริญกรุง ตั้งแต่บริเวณแยกสามยอด,1,เส้นทางรถไฟฟ้ามหานคร สายสีน้ำเงิน,,1001,พระนคร  ,13.74705362,100.5021701
BL31,สถานีสนามไชย,ถนนสนามไชย ด้านทิศเหนือของแยกสะพานเจริญรัช 31 หรือปากคลองตลาด,1,เส้นทางรถไฟฟ้ามหานคร สายสีน้ำเงิน,,1001,พระนคร  ,13.74434176,100.4947367
BL32,สถานีอิสรภาพ,ระหว่างซอยอิสรภาพ 23 (ซอยวัดราชสิทธาราม) และซอยอิสรภาพ 34 (ซอยพิเศษสุข),1,เส้นทางรถไฟฟ้ามหานคร สายสีน้ำเงิน,,1016,บางกอกใหญ่,13.73831268,100.4857197
BL33,สถานีบางไผ่,ถนนเพชรเกษม ระหว่างซอยเพชรเกษม 19 กับซอยเพชรเกษม 19/2 บริเวณหน้าโรงพยาบาลบางไผ่,1,เส้นทางรถไฟฟ้ามหานคร สายสีน้ำเงิน,,1022,ภาษีเจริญ,13.72473175,100.4651442
BL34,สถานีบางหว้า,ถนนราชพฤกษ์ บริเวณด้านข้างสะพานยกระดับข้ามทางแยกต่างระดับเพชรเกษม,1,เส้นทางรถไฟฟ้ามหานคร สายสีน้ำเงิน,,1022,ภาษีเจริญ,13.72070709,100.4578516
BL35,สถานีเพชรเกษม48,ถนนเพชรเกษม ระหว่างซอยเพชรเกษม 31/1 และ 46/2,1,เส้นทางรถไฟฟ้ามหานคร สายสีน้ำเงิน,,1022,ภาษีเจริญ,13.71541044,100.4454476
BL36,สถานีภาษีเจริญ,ถนนเพชรเกษม หน้าศูนย์สรรพสินค้าซีคอนบางแค,1,เส้นทางรถไฟฟ้ามหานคร สายสีน้ำเงิน,,1022,ภาษีเจริญ,13.7128901,100.4342906
BL37,สถานีบางแค,ถนนเพชรเกษม ระหว่างซอยเพชรเกษม 62/3 กับซอยเพชรเกษม 62/4,1,เส้นทางรถไฟฟ้ามหานคร สายสีน้ำเงิน,,1040,บางแค,13.71189286,100.4222739
BL38,สถานีหลักสอง,ถนนเพชรเกษม อยู่ระหว่างซอยเพชรเกษม 80 และทางแยกต่างระดับเพชรเกษม ตัดกับถนนกาญจนาภิเษก,1,เส้นทางรถไฟฟ้ามหานคร สายสีน้ำเงิน,,1040,บางแค,13.7108635,100.4094434
PP01,สถานีคลองบางไผ่,ถนนกาญจนาภิเษก บริเวณเยื้องปากซอยบ้านบัวทอง ด้านหน้าอาคารศูนย์ซ่อมบำรุงรถไฟฟ้าและอาคารจอดแล้วจร,2,เส้นทางรถไฟฟ้ามหานคร สายสีม่วง,,,,13.89238779,100.4082208
PP02,สถานีตลาดบางใหญ่,ถนนกาญจนาภิเษก,2,เส้นทางรถไฟฟ้ามหานคร สายสีม่วง,,,,13.88103687,100.4092903
PP03,สถานีสามแยกบางใหญ่,ถนนรัตนาธิเบศร์ หมู่ที่ 7 บ้านคลองบางเดื่อ ตำบลเสาธงหิน อำเภอบางใหญ่,2,เส้นทางรถไฟฟ้ามหานคร สายสีม่วง,,,,13.87469609,100.4193558
PP04,สถานีบางพลู,ถนนรัตนาธิเบศร์ ยกระดับเหนือสะพานข้ามทางแยกบางพลู,2,เส้นทางรถไฟฟ้ามหานคร สายสีม่วง,,,,13.87575986,100.4337962
PP05,สถานีบางรักใหญ่,ระหว่างทางแยกบางพลูกับทางแยกต่างระดับบางรักน้อย,2,เส้นทางรถไฟฟ้ามหานคร สายสีม่วง,,,,13.87660724,100.4449415
PP06,สถานีบางรักน้อยท่าอิฐ,ถนนรัตนาธิเบศร์ ใกล้กับทางแยกไทรม้าและอาคารจอดแล้วจรสถานีบางรักน้อยท่าอิฐ,2,เส้นทางรถไฟฟ้ามหานคร สายสีม่วง,,,,13.87480634,100.45595
PP07,สถานีไทรม้า,ถนนรัตนาธิเบศร์ บริเวณซอยตาหรั่งและหมู่บ้านซื่อตรง รัตนาธิเบศร์,2,เส้นทางรถไฟฟ้ามหานคร สายสีม่วง,,,,13.87047546,100.4667018
PP08,สถานีสะพานพระนั่งเกล้า,ริมถนนรัตนาธิเบศร์ ใกล้กับทางขึ้นสะพานพระนั่งเกล้าฝั่งตะวันออก,2,เส้นทางรถไฟฟ้ามหานคร สายสีม่วง,,,,13.87030425,100.4801163
PP09,สถานีแยกนนทบุรี 1,เหนือถนนรัตนาธิเบศร์ บริเวณกลางทางแยกรัตนาธิเบศร์-เลี่ยงเมืองนนทบุรี,2,เส้นทางรถไฟฟ้ามหานคร สายสีม่วง,,,,13.86593454,100.4941053
PP10,สถานีบางกระสอ,เหนือถนนรัตนาธิเบศร์ บริเวณหน้าโรงเเรมแกรนด์ ริชมอนด์ และห้างสรรพสินค้าบิ๊กซี สาขารัตนาธิเบศร์,2,เส้นทางรถไฟฟ้ามหานคร สายสีม่วง,,,,13.86165786,100.5046064
PP11,สถานีศูนย์ราชการนนทบุรี,เหนือถนนรัตนาธิเบศร์ หน้าศูนย์ราชการจังหวัดนนทบุรี,2,เส้นทางรถไฟฟ้ามหานคร สายสีม่วง,,,,13.86018661,100.5130529
PP12,สถานีกระทรวงสาธารณสุข,เหนือถนนติวานนท์บริเวณบริเวณทางแยกศรีธัญญา,2,เส้นทางรถไฟฟ้ามหานคร สายสีม่วง,,,,13.8485518,100.5147168
PP13,สถานีแยกติวานนท์,เหนือถนนกรุงเทพฯ-นนทบุรี ใกล้ทางแยกติวานนท์,2,เส้นทางรถไฟฟ้ามหานคร สายสีม่วง,,,,13.83953803,100.514973
PP14,สถานีวงศ์สว่าง,บนถนนกรุงเทพฯ-นนทบุรี ใกล้ สี่เเยกวงศ์สว่าง,2,เส้นทางรถไฟฟ้ามหานคร สายสีม่วง,,1029,บางซื่อ,13.82986686,100.5264918
PP15,สถานีบางซ่อน,ถนนกรุงเทพ-นนทบุรี ระหว่างซอยกรุงเทพ-นนทบุรี 23 และซอยกรุงเทพ-นนทบุรี 25,2,เส้นทางรถไฟฟ้ามหานคร สายสีม่วง,,1029,บางซื่อ,13.82010348,100.5324499
PP16,สถานีเตาปูน,แยกเตาปูน (จุดบรรจบระหว่างถนนประชาราษฎร์ สาย 2 กับถนนกรุงเทพ-นนทบุรี),2,เส้นทางรถไฟฟ้ามหานคร สายสีม่วง,,1029,บางซื่อ,13.80614838,100.5307586
YL01,สถานีลาดพร้าว,ถนนลาดพร้าว บริเวณทิศตะวันตกของสี่แยกรัชดา-ลาดพร้าว,3,เส้นทางรถไฟฟ้ามหานคร สายสีเหลือง,สถานีเชื่อมต่อเส้นทางรถไฟฟ้ามหานคร สายสีน้ำเงิน สถานี BL15,1030,จตุจักร,13.80697302,100.5747539
YL02,สถานีภาวนา,ตั้งอยู่บนถนนลาดพร้าว ระหว่างปากซอยลาดพร้าว 41 (ภาวนา) กับปากซอยลาดพร้าว 41/1,3,เส้นทางรถไฟฟ้ามหานคร สายสีเหลือง,,1017,ห้วยขวาง,13.80013312,100.5841789
YL03,สถานีโชคชัย 4,ถนนลาดพร้าว บริเวณทางแยกโชคชัย 4 (จุดตัดกับถนนโชคชัย 4,3,เส้นทางรถไฟฟ้ามหานคร สายสีเหลือง,,1045,วังทองหลาง,13.79423668,100.5944237
YL04,สถานีลาดพร้าว 71,ถนนลาดพร้าว บริเวณจุดตัดกับถนนประดิษฐ์มนูธรรม,3,เส้นทางรถไฟฟ้ามหานคร สายสีเหลือง,,1045,วังทองหลาง,13.78703755,100.6075445
YL05,สถานีลาดพร้าว 83,ถนนลาดพร้าว บริเวณหน้าปากซอยลาดพร้าว 85 (อุทิศ 2) และปากซอยลาดพร้าว 100,3,เส้นทางรถไฟฟ้ามหานคร สายสีเหลือง,,1045,วังทองหลาง,13.78367139,100.6136253
YL06,สถานีมหาดไทย,ถนนลาดพร้าว บริเวณหน้าปากซอยลาดพร้าว 95 (ปรางค์ทิพย์),3,เส้นทางรถไฟฟ้ามหานคร สายสีเหลือง,,1045,วังทองหลาง,13.77843808,100.6232072
YL07,สถานีลาดพร้าว 101,,3,เส้นทางรถไฟฟ้ามหานคร สายสีเหลือง,,1006,บางกะปิ,13.77469684,100.6299138
YL08,สถานีบางกะปิ,ถนนลาดพร้าว บริเวณหน้าปากซอยลาดพร้าว 115,3,เส้นทางรถไฟฟ้ามหานคร สายสีเหลือง,,1006,บางกะปิ,13.76903632,100.6397694
YL09,สถานีแยกลำสาลี,ถนนศรีนครินทร์ บริเวณทิศใต้ของทางแยกลำสาลี,3,เส้นทางรถไฟฟ้ามหานคร สายสีเหลือง,สถานีเชื่อมตอเสนทางเดิน เรือโดยสารคลองแสนแสบ ท่าเดอะมอลล์ บางกะปิ,1006,บางกะปิ,13.76181247,100.6454616
YL10,สถานีศรีกรีฑา,ถนนศรีนครินทร์ บริเวณทิศใต้ของทางแยกต่างระดับกรุงเทพกรีฑา,3,เส้นทางรถไฟฟ้ามหานคร สายสีเหลือง,,1006,บางกะปิ,13.75040076,100.6448085
YL11,สถานีหัวหมาก,,3,เส้นทางรถไฟฟ้ามหานคร สายสีเหลือง,สถานีเชื่อมต่อเส้นทางรถไฟฟ้าแอร์พอร์ต เรล ลิงก์ (Airport Rail Link) สถานีหัวหมาก,1034,สวนหลวง,13.73614434,100.6410568
YL12,สถานีกลันตัน,ถนนศรีนครินทร์ บริเวณเชิงสะพานข้ามคลองโคกวัด,3,เส้นทางรถไฟฟ้ามหานคร สายสีเหลือง,,1034,สวนหลวง,13.72527482,100.6417763
YL13,สถานีศรีนุช,ถนนศรีนครินทร์ ด้านใต้ของทางแยกสวนหลวงหรือทางแยกศรีนุช,3,เส้นทางรถไฟฟ้ามหานคร สายสีเหลือง,,1034,สวนหลวง,13.71111235,100.6442758
YL14,สถานีศรีนครินทร์ 38,ถนนศรีนครินทร์ บริเวณปากซอยศรีนครินทร์ 38 (หมู่บ้านมิตรภาพ),3,เส้นทางรถไฟฟ้ามหานคร สายสีเหลือง,,1032,ประเวศ,13.70113658,100.6465176
YL15,สถานีสวนหลวง ร.9,ถนนศรีนครินทร์ บริเวณปากซอยศรีนครินทร์ 53 (หวังงาม),3,เส้นทางรถไฟฟ้ามหานคร สายสีเหลือง,,1032,ประเวศ,13.69086507,100.6470192
YL16,สถานีศรีอุดม,ถนนศรีนครินทร์ บริเวณทางทิศตะวันออกเฉียงใต้ของทางแยกศรีอุดมหรือทางแยกหนองบอน,3,เส้นทางรถไฟฟ้ามหานคร สายสีเหลือง,,1032,ประเวศ,13.67664325,100.6462085
YL17,สถานีศรีเอี่ยม,ถนนศรีนครินทร์ บริเวณข้างสะพานทางแยกต่างระดับศรีเอี่ยม,3,เส้นทางรถไฟฟ้ามหานคร สายสีเหลือง,,1046,คลองสามวา,13.66761207,100.6450458
YL18,สถานีศรีลาซาล,ถนนศรีนครินทร์ บริเวณทางใต้ของทางแยกศรีนครินทร์–ลาซาลหรือทางแยกศิครินทร์,3,เส้นทางรถไฟฟ้ามหานคร สายสีเหลือง,,1046,คลองสามวา,13.65496793,100.6421205
YL19,สถานีศรีแบริ่ง,ถนนศรีนครินทร์ บริเวณปากซอยศรีด่าน 13 ใกล้กับทางแยกศรีแบริ่ง,3,เส้นทางรถไฟฟ้ามหานคร สายสีเหลือง,,,,13.64355462,100.6362095
YL20,สถานีศรีด่าน,ตำบลสำโรงเหนือ อำเภอเมืองสมุทรปราการ จังหวัดสมุทรปราการ,3,เส้นทางรถไฟฟ้ามหานคร สายสีเหลือง,,,,13.63320965,100.6300014
YL21,สถานีศรีเทพา,หมู่ที่ 3 บ้านทิพวัล ตำบลเทพารักษ์ อำเภอเมืองสมุทรปราการ จังหวัดสมุทรปราการ,3,เส้นทางรถไฟฟ้ามหานคร สายสีเหลือง,,,,13.62994906,100.6227147
YL22,สถานีทิพวัล,หมู่ที่ 3 บ้านทิพวัล ตำบลเทพารักษ์ อำเภอเมืองสมุทรปราการ จังหวัดสมุทรปราการ,3,เส้นทางรถไฟฟ้ามหานคร สายสีเหลือง,,,,13.63677534,100.6099328
YL23,สถานีสำโรง,พื้นที่ตำบลเทพารักษ์ อำเภอเมืองสมุทรปราการ จังหวัดสมุทรปราการ,3,เส้นทางรถไฟฟ้ามหานคร สายสีเหลือง,สถานีเชื่อมต่อเส้นทางเส้นทางรถไฟฟ้าบีทีเอส สายสุขุมวิท (สีเขียวอ่อน)สถานี E15,,,13.64500554,100.5966143
N8,สถานีหมอชิต,บริเวณหน้าสวนจตุจักร เป็นจุดเชื่อมต่อการเดินทางที่สำคัญของกรุงเทพฯ,2,เส้นทางรถไฟฟ้าบีทีเอส สายสุขุมวิท (สีเขียวอ่อน),1030,เขตจตุจักร,สถานีเชื่อมต่อเส้นทางรถไฟฟ้ามหานคร สายสีน้ำเงิน สถานี BL13,13.80262297,100.5538124
N7,สถานีสะพานควาย,โรงพยาบาลเปาโล-ที่ทำการไปรษณีย์สามเสน,2,เส้นทางรถไฟฟ้าบีทีเอส สายสุขุมวิท (สีเขียวอ่อน),1014,เขตพญาไท,,13.79386254,100.5497496
N5,สถานีอารีย์,บริเวณสามแยกซอยพหลโยธิน 7 (อารีย์),2,เส้นทางรถไฟฟ้าบีทีเอส สายสุขุมวิท (สีเขียวอ่อน),1014,เขตพญาไท,,13.77954984,100.5445779
N4,สถานีสนามเป้า,บริเวณด้านหน้ากองพลทหารม้าที่ 2 รักษาพระองค์ ด้านทิศใต้ของซอยพหลโยธิน 3,2,เส้นทางรถไฟฟ้าบีทีเอส สายสุขุมวิท (สีเขียวอ่อน),1014,เขตพญาไท,,13.77255111,100.542072
N3,สถานีอนุสาวรีย์ชัยสมรภูมิ,บริเวณทิศใต้ของอนุสาวรีย์ชัยสมรภูมิ,2,เส้นทางรถไฟฟ้าบีทีเอส สายสุขุมวิท (สีเขียวอ่อน),1037,เขตราชเทวี,,13.76270271,100.5370322
N2,สถานีพญาไท,ด้านทิศใต้ของทางแยกพญาไท (จุดบรรจบถนนพญาไทและถนนศรีอยุธยา),2,เส้นทางรถไฟฟ้าบีทีเอส สายสุขุมวิท (สีเขียวอ่อน),1037,เขตราชเทวี,สถานีเชื่อมต่อเส้นทางรถไฟฟ้าแอร์พอร์ต เรล ลิงก์ (Airport Rail Link),13.75695565,100.5338228
N1,สถานีราชเทวี,ถนนพญาไท ด้านทิศใต้ของทางแยกราชเทวี จุดบรรจบถนนพญาไทและถนนเพชรบุรี ใกล้สะพานหัวช้าง,2,เส้นทางรถไฟฟ้าบีทีเอส สายสุขุมวิท (สีเขียวอ่อน),1037,เขตราชเทวี,สถานีเชื่อมต่อเส้นทางเรือโดยสารคลองแสนแสบ  ท่าสะพานหัวช้าง,13.75181733,100.5315607
W1,สถานีสนามกีฬาแห่งชาติ,หน้าสนามกีฬาแห่งชาติ,1,เส้นทางรถไฟฟ้าบีทีเอส สายสีลม (สีเขียวเข้ม),1007,เขตปทุมวัน,,13.74650803,100.5291682
CEN,สถานีสยาม,บนถนนพระรามที่ 1 ระหว่างทางแยกปทุมวัน (จุดบรรจบถนนพระรามที่ 1 และถนนพญาไท) กับทางแยกเฉลิมเผ่า,1,เส้นทางรถไฟฟ้าบีทีเอส สายสีลม (สีเขียวเข้ม),1007,เขตปทุมวัน,สถานีร่วมระหว่างเส้นทางรถไฟฟ้าบีทีเอส สายสีลม (สีเขียวเข้ม)กับเส้นทางรถไฟฟ้าบีทีเอส สายสุขุมวิท,13.74565407,100.5342208
S1,สถานีราชดำริ,ระหว่างทางแยกราชดำริซึ่งเป็นจุดบรรจบกับถนนสารสิน,1,เส้นทางรถไฟฟ้าบีทีเอส สายสีลม (สีเขียวเข้ม),1007,เขตปทุมวัน,,13.73945669,100.5394511
S2,สถานีศาลาแดง,ยกระดับเหนือถนนสีลม ใจกลางย่านธุรกิจถนนสีลม ใกล้กับทางแยกศาลาแดง,1,เส้นทางรถไฟฟ้าบีทีเอส สายสีลม (สีเขียวเข้ม),1004,เขตบางรัก,สถานีเชื่อมต่อเส้นทางรถไฟฟ้ามหานคร สายสีน้ำเงิน สถานี BL26,13.72851545,100.5342387
S3,สถานีช่องนนทรีย์,บนถนนนราธิวาสราชนครินทร์ บริเวณซอยพิพัฒน์ 2,1,เส้นทางรถไฟฟ้าบีทีเอส สายสีลม (สีเขียวเข้ม),1004,เขตบางรัก,สถานีเชื่อมต่อรถโดยสารด่วนพิเศษ สายสาทร–ราชพฤกษ์ สถานีสาทร,13.72385423,100.5293727
S5,สถานีสุรศักดิ์,หน้าสมาคมหอการค้าไทย-จีน,1,เส้นทางรถไฟฟ้าบีทีเอส สายสีลม (สีเขียวเข้ม),1028,เขตสาทร,,13.71930141,100.5215673
S6,สถานีสะพานตากสิน,เชิงสะพานสมเด็จเจ้าพระยาตากสิน(สาทร),1,เส้นทางรถไฟฟ้าบีทีเอส สายสีลม (สีเขียวเข้ม),1004,เขตบางรัก,สถานีเชือมต่อเส้นทางเดินเรือด่วนเจ้าพระยา  ท่าสาทร,13.7188135,100.5141766
E1,สถานีชิดลม,"ด้านทิศตะวันตกของทางแยกชิดลม จุดบรรจบถนนเพลินจิต, ถนนชิดลม และถนนหลังสวน ใกล้ทางแยกราชประสงค์",2,เส้นทางรถไฟฟ้าบีทีเอส สายสุขุมวิท (สีเขียวอ่อน),1007,เขตปทุมวัน,,13.74409858,100.5430322
E2,สถานีเพลินจิต,ด้านทิศตะวันออกของทางแยกเพลินจิต (จุดบรรจบถนนเพลินจิตและถนนวิทยุ) ใกล้จุดตัดทางพิเศษเฉลิมมหานคร,2,เส้นทางรถไฟฟ้าบีทีเอส สายสุขุมวิท (สีเขียวอ่อน),1007,เขตปทุมวัน,,13.74302972,100.5491559
E3,สถานีนานา,ต้นถนนสุขุมวิท บริเวณปากซอยสุขุมวิท 6 และซอยสุขุมวิท 9,2,เส้นทางรถไฟฟ้าบีทีเอส สายสุขุมวิท (สีเขียวอ่อน),1039,เขตวัฒนา,,13.74063159,100.5553355
E4,สถานีอโศก,ถนนสุขุมวิท ปากซอยสุขุมวิท 14 และซอยสุขุมวิท 19 ด้านทิศตะวันตกของทางแยกอโศกมนตรี,2,เส้นทางรถไฟฟ้าบีทีเอส สายสุขุมวิท (สีเขียวอ่อน),1033,เขตคลองเตย,สถานีเชื่อมต่อเส้นทางรถไฟฟ้ามหานคร สายสีน้ำเงิน สถานี BL22,13.73701993,100.560425
E5,สถานีพร้อมพงษ์,ถนนสุขุมวิท บริเวณปากซอยสุขุมวิท 24 (เกษม) และซอยสุขุมวิท 39 (พร้อมพงษ์),2,เส้นทางรถไฟฟ้าบีทีเอส สายสุขุมวิท (สีเขียวอ่อน),1039,เขตวัฒนา,,13.73051676,100.5696098
E6,สถานีทองหล่อ,ถนนสุขุมวิท บริเวณปากซอยสุขุมวิท 55 (ทองหล่อ) และซอยสุขุมวิท 38 (สันติสุข),2,เส้นทางรถไฟฟ้าบีทีเอส สายสุขุมวิท (สีเขียวอ่อน),1033,เขตคลองเตย,,13.72429562,100.5784631
E7,สถานีเอกมัย,บริเวณปากซอยสุขุมวิท 42 ด้านทิศตะวันออกของแยกเอกมัยใต้ จุดบรรจบถนนสุขุมวิทและซอยสุขุมวิท 63,2,เส้นทางรถไฟฟ้าบีทีเอส สายสุขุมวิท (สีเขียวอ่อน),1033,เขตคลองเตย,,13.71955261,100.5851253
E8,สถานีพระโขนง,จุดบรรจบถนนสุขุมวิท ถนนพระรามที่ 4 ถนนสุขุมวิท 71ระหว่างซอยสุขุมวิท 44/1-46 กับซอยสุขุมวิท 67-69,2,เส้นทางรถไฟฟ้าบีทีเอส สายสุขุมวิท (สีเขียวอ่อน),1039,เขตวัฒนา,,13.71526531,100.5911801
E9,สถานีอ่อนนุช,บริเวณทางแยกอ่อนนุช ระหว่างซอยสุขุมวิท 79 และซอยสุขุมวิท 81 กับซอยสุขุมวิท 50 และซอยสุขุมวิท 52,2,เส้นทางรถไฟฟ้าบีทีเอส สายสุขุมวิท (สีเขียวอ่อน),1033,เขตคลองเตย, ,13.70562929,100.6010353
S7,สถานีกรุงธนบุรี,ใกล้สะพานสมเด็จพระเจ้าตากสินและถนนเจริญกรุง,1,เส้นทางรถไฟฟ้าบีทีเอส สายสีลม (สีเขียวเข้ม),1018,เขตคลองสาน,สถานีเชื่อมต่อเส้นทางรถไฟฟ้า สายสีทอง สถานี G1,13.72093655,100.5025308
S8,สถานีวงเวียนใหญ่,ใกล้วงเวียนใหญ่,1,เส้นทางรถไฟฟ้าบีทีเอส สายสีลม (สีเขียวเข้ม),1018,เขตคลองสาน, ,13.72107132,100.495218
E10,สถานีบางจาก,บนถนนสุขุมวิท ระหว่างซอยสุขุมวิท 97 และซอยสุขุมวิท 99 กับซอยสุขุมวิท 60/2 และซอยสุขุมวิท 62,2,เส้นทางรถไฟฟ้าบีทีเอส สายสุขุมวิท (สีเขียวอ่อน),1009,เขตพระโขนง,,13.69671589,100.605357
E11,สถานีปุณณวิถี,นนสุขุมวิท บริเวณปากซอยสุขุมวิท 101 (ปุณณวิถี) และซอยสุขุมวิท 64,2,เส้นทางรถไฟฟ้าบีทีเอส สายสุขุมวิท (สีเขียวอ่อน),1009,เขตพระโขนง,,13.68930755,100.6089676
E12,สถานีอุดมสุข,ถนนสุขุมวิท ระหว่างซอยสุขุมวิท 101/3 กับถนนอุดมสุข (สุขุมวิท 103),2,เส้นทางรถไฟฟ้าบีทีเอส สายสุขุมวิท (สีเขียวอ่อน),1047,เขตบางนา,,13.6798494,100.6094764
E13,สถานีบางนา,ถนนสุขุมวิท บริเวณสะพานข้ามคลองบางนา หน้ากรมอุตุนิยมวิทยาและศูนย์แสดงสินค้าไบเทค,2,เส้นทางรถไฟฟ้าบีทีเอส สายสุขุมวิท (สีเขียวอ่อน),1047,เขตบางนา,,13.66812092,100.6046455
E14,สถานีแบริ่ง,ถนนสุขุมวิท ระหว่างปากทางถนนลาซาล (สุขุมวิท 105) กับซอยสุขุมวิท 107,2,เส้นทางรถไฟฟ้าบีทีเอส สายสุขุมวิท (สีเขียวอ่อน),1047,เขตบางนา,,13.66115213,100.6017976
S9,สถานีโพธิ์นิมิตร,ถนนราชพฤกษ์ ใกล้สี่แยกตากสิน,1,เส้นทางรถไฟฟ้าบีทีเอส สายสีลม (สีเขียวเข้ม),1015,เขตธนบุรี,,13.71921979,100.4859694
S10,สถานีตลาดพลู,ถนนริมทางรถไฟและถนนเทอดไท,1,เส้นทางรถไฟฟ้าบีทีเอส สายสีลม (สีเขียวเข้ม),1015,เขตธนบุรี,สถานีเชื่อมต่อรถโดยสารด่วนพิเศษ สายสาทร–ราชพฤกษ์ สถานีราชพฤกษ์,13.71403433,100.4763857
S11,สถานีวุฒากาศ,บริเวณสี่แยกราชพฤกษ์-วุฒากาศ,1,เส้นทางรถไฟฟ้าบีทีเอส สายสีลม (สีเขียวเข้ม),1015,เขตธนบุรี,,13.71222176,100.4726205
S12,สถานีบางหว้า,บริเวณด้านข้างสะพานยกระดับข้ามทางแยกต่างระดับเพชรเกษม,1,เส้นทางรถไฟฟ้าบีทีเอส สายสีลม (สีเขียวเข้ม),1022,เขตภาษีเจริญ,สถานีเชื่อมต่อเส้นทางรถไฟฟ้ามหานคร สายสีน้ำเงิน สถานี BL34,13.72078877,100.4577966
N9,สถานีห้าแยกลาดพร้าว,บริเวณใกล้กับจุดบรรจบถนนลาดพร้าว และถนนหอวัง ด้านหน้าศูนย์การค้าเซ็นทรัล ลาดพร้าว และโรงเรียนหอวัง,2,เส้นทางรถไฟฟ้าบีทีเอส สายสุขุมวิท (สีเขียวอ่อน),1030,เขตจตุจักร,สถานีเชื่อมต่อเส้นทางรถไฟฟ้ามหานคร สายสีน้ำเงิน สถานี BL14,13.81668984,100.5620546
N10,สถานีพหลโยธิน 24,บริเวณจุดตัดระหว่างถนนรัชดาภิเษกและถนนพหลโยธิน (แยกรัชโยธิน),2,เส้นทางรถไฟฟ้าบีทีเอส สายสุขุมวิท (สีเขียวอ่อน),1030,เขตจตุจักร,,13.82413711,100.566461
N11,สถานีรัชโยธิน,บริเวณเชิงสะพานข้ามแยกรัชโยธิน ใกล้กับโรงภาพยนตร์เมเจอร์ ซีนีเพล็กซ์ รัชโยธิน,2,เส้นทางรถไฟฟ้าบีทีเอส สายสุขุมวิท (สีเขียวอ่อน),1030,เขตจตุจักร,,13.82975669,100.5697176
N13,สถานีมหาวิทยาลัยเกษตรศาสตร์,บริเวณด้านหน้ามหาวิทยาลัยเกษตรศาสตร์ วิทยาเขตบางเขน,2,เส้นทางรถไฟฟ้าบีทีเอส สายสุขุมวิท (สีเขียวอ่อน),1030,เขตจตุจักร,,13.84225543,100.5771187
N12,สถานีเสนานิคม,บริเวณด้านหน้ากรมพัฒนาที่ดิน,2,เส้นทางรถไฟฟ้าบีทีเอส สายสุขุมวิท (สีเขียวอ่อน),1030,เขตจตุจักร,,13.83639349,100.5736196
N16,สถานีกรมทหารราบที่ 11,บริเวณด้านหน้ากรมทหารราบที่ 11 มหาดเล็กราชวัลลภรักษาพระองค์,2,เส้นทางรถไฟฟ้าบีทีเอส สายสุขุมวิท (สีเขียวอ่อน),1005,เขตบางเขน,,13.86764879,100.5920557
N15,สถานีบางบัว,บริเวณด้านหน้า มหาวิทยาลัยศรีปทุม และโรงเรียนบางบัว (เพ่งตั้งตรงจิตวิทยาคาร) ใกล้กับแยกบางบัว,2,เส้นทางรถไฟฟ้าบีทีเอส สายสุขุมวิท (สีเขียวอ่อน),1005,เขตบางเขน,,13.85601494,100.5851953
N14,สถานีกรมป่าไม้,บริเวณด้านหน้ากรมป่าไม้ และโรงเรียนสารวิทยา,2,เส้นทางรถไฟฟ้าบีทีเอส สายสุขุมวิท (สีเขียวอ่อน),1030,เขตจตุจักร,,13.85025175,100.5818259
G2,สถานีเจริญนคร,เจริญนคร,3,เส้นทางรถไฟฟ้า สายสีทอง,1018,เขตคลองสาน,,13.72646504,100.509057
G3,สถานีคลองสาน,สมเด็จเจ้าพระยา,3,เส้นทางรถไฟฟ้า สายสีทอง,1018,เขตคลองสาน,,13.73038781,100.5076304
S4,สถานีเซนต์หลุยส์,บริเวณปากซอยสาทร 11 (ซอยเซนต์หลุยส์ 3) ด้านหน้าอาคารเอไอเอ ทาวเวอร์,1,เส้นทางรถไฟฟ้าบีทีเอส สายสีลม (สีเขียวเข้ม),1028,เขตสาทร,,13.72081548,100.5266994
N24,สถานีคูคต,บริเวณสถานีตำรวจภูธรคูคต ในพื้นที่ตำบลคูคต อำเภอลำลูกกา จังหวัดปทุมธานี,2,เส้นทางรถไฟฟ้าบีทีเอส สายสุขุมวิท (สีเขียวอ่อน), ,,,13.93238496,100.6465697
N23,สถานีแยก คปอ.,บริเวณด้านหน้ากรมควบคุมการปฏิบัติการทางอากาศ,2,เส้นทางรถไฟฟ้าบีทีเอส สายสุขุมวิท (สีเขียวอ่อน),1036,เขตดอนเมือง,,13.92504891,100.6258727
N22,สถานีพิพิธภัณฑ์กองทัพอากาศ,ด้านหน้าฐานทัพอากาศดอนเมือง ในพื้นที่แขวงสนามบิน เขตดอนเมือง และแขวงคลองถนน เขตสายไหม,2,เส้นทางรถไฟฟ้าบีทีเอส สายสุขุมวิท (สีเขียวอ่อน),1036,เขตดอนเมือง,,13.9178731,100.6216492
N21,สถานีโรงพยาบาลภูมิพลอดุลยเดช,บริเวณด้านหน้ากรมแพทย์ทหารอากาศ โรงพยาบาลภูมิพลอดุลยเดช และฐานทัพอากาศดอนเมือง,2,เส้นทางรถไฟฟ้าบีทีเอส สายสุขุมวิท (สีเขียวอ่อน),1036,เขตดอนเมือง,,13.91058043,100.6173142
N20,สถานีสะพานใหม่,บริเวณด้านหน้าตลาดยิ่งเจริญพลาซ่า,2,เส้นทางรถไฟฟ้าบีทีเอส สายสุขุมวิท (สีเขียวอ่อน),1005,เขตบางเขน,,13.8964893,100.609037
N19,สถานีสายหยุด,บริเวณด้านหน้าซอยพหลโยธิน 69,2,เส้นทางรถไฟฟ้าบีทีเอส สายสุขุมวิท (สีเขียวอ่อน),1005,เขตบางเขน,,13.88841275,100.6042717
N18,สถานีพหลโยธิน 59,บริเวณด้านหน้าซอยพหลโยธิน 59 และซอยหมู่บ้านราชตฤณมัย กับหมู่บ้านฝนทองนิเวศน์,2,เส้นทางรถไฟฟ้าบีทีเอส สายสุขุมวิท (สีเขียวอ่อน),1005,เขตบางเขน,,13.88251503,100.6007986
N17,สถานีวัดพระศรีมหาธาตุ,บริเวณกลางวงเวียนอนุสาวรีย์พิทักษ์รัฐธรรมนูญ จุดตัดระหว่างถนนพหลโยธิน ถนนแจ้งวัฒนะ และถนนรามอินทรา,2,เส้นทางรถไฟฟ้าบีทีเอส สายสุขุมวิท (สีเขียวอ่อน),1005,เขตบางเขน,,13.87525635,100.596715
E15,สถานีสำโรง,ถนนสุขุมวิท ระหว่างสะพานข้ามคลองสำโรงกับทางแยกเทพารักษ์ ในพื้นที่จ.สมุทรปราการ,2,เส้นทางรถไฟฟ้าบีทีเอส สายสุขุมวิท (สีเขียวอ่อน), ,,สถานีเชื่อมต่อรถไฟฟ้ามหานคร สายสีเหลือง สถานี YL23,13.64656537,100.5958207
E16,สถานีปู่เจ้า,ถนนสุขุมวิท บริเวณปากซอยสุขุมวิท 115 ใกล้กับห้างสรรพสินค้าบิ๊กซี ในพื้นที่จ.สมุทรปราการ,2,เส้นทางรถไฟฟ้าบีทีเอส สายสุขุมวิท (สีเขียวอ่อน), ,,,13.63738772,100.5920527
E17,สถานีช้างเอราวัณ,ถนนสุขุมวิท บริเวณซอยสุขุมวิท 7 ในพื้นที่จ.สมุทรปราการ,2,เส้นทางรถไฟฟ้าบีทีเอส สายสุขุมวิท (สีเขียวอ่อน), ,,,13.62147272,100.590181
E18,สถานีโรงเรียนนายเรือ,ถนนสุขุมวิท บริเวณด้านหน้าโรงเรียนนายเรือ ในพื้นที่จ.สมุทรปราการ,2,เส้นทางรถไฟฟ้าบีทีเอส สายสุขุมวิท (สีเขียวอ่อน), ,,,13.60848025,100.5949182
E19,สถานีปากน้ำ,ถนนสุขุมวิท บริเวณหน้าวิทยาลัยสารพัดช่างสมุทรปราการ ในพื้นที่จ.สมุทรปราการ,2,เส้นทางรถไฟฟ้าบีทีเอส สายสุขุมวิท (สีเขียวอ่อน), ,,,13.60216596,100.597103
E20,สถานีศรีนครินทร์,ถนนสุขุมวิท บริเวณสะพานข้ามคลองบางปิ้งและทางแยกการไฟฟ้าสมุทรปราการ,2,เส้นทางรถไฟฟ้าบีทีเอส สายสุขุมวิท (สีเขียวอ่อน), ,,,13.59196551,100.6090107
E21,สถานีแพรกษา,ถนนสุขุมวิท บริเวณด้านหน้าโรงเรียนสมุทรปราการ,2,เส้นทางรถไฟฟ้าบีทีเอส สายสุขุมวิท (สีเขียวอ่อน), ,,,13.58421744,100.6078495
E22,สถานีสายลวด,ถนนสุขุมวิท บริเวณปากซอยเทศบาลบางปู 43 ใกล้ทางแยกสายลวด ในพื้นที่จ.สมุทรปราการ,2,เส้นทางรถไฟฟ้าบีทีเอส สายสุขุมวิท (สีเขียวอ่อน), ,,,13.57779717,100.6054316
E23,สถานีเคหะฯ,ถนนสุขุมวิท บริเวณปากซอยเทศบาลบางปู 50 ในพื้นที่จ.สมุทรปราการ,2,เส้นทางรถไฟฟ้าบีทีเอส สายสุขุมวิท (สีเขียวอ่อน), ,,,13.56773098,100.6077108
G1,สถานีกรุงธนบุรี,แขวงคลองต้นไทร เขตคลองสาน กรุงเทพมหานคร 10600,3,เส้นทางรถไฟฟ้า สายสีทอง,1018,เขตคลองสาน,สถานีเชื่อมต่อเส้นทางรถไฟฟ้าบีทีเอส สายสีลม (สีเขียวเข้ม) สถานี S7,13.72106499,100.5037059
